[
  {
    "id": "kjb-texas-1",
    "name": "First King James Baptist Church",
    "address": "1234 Bible Way",
    "city": "Dallas",
    "state": "Texas",
    "zipCode": "75201",
    "latitude": 32.7767,
    "longitude": -96.7970,
    "phone": "(214) 555-0123",
    "website": "https://example.com",
    "pastor": "Pastor John Smith",
    "category": "KJB",
    "affiliation": ["King James Only", "Independent Baptist"],
    "description": "A Bible-believing, King James Version only Baptist church committed to the old-time religion and traditional Christian values."
  },
  {
    "id": "kjb-florida-1", 
    "name": "Calvary King James Baptist Church",
    "address": "567 Gospel Street",
    "city": "Jacksonville",
    "state": "Florida",
    "zipCode": "32201",
    "latitude": 30.3322,
    "longitude": -81.6557,
    "phone": "(904) 555-0456",
    "pastor": "Pastor David Johnson",
    "category": "KJB",
    "affiliation": ["King James Only"],
    "description": "Independent Baptist church dedicated to preaching from the King James Bible and soul winning."
  },
  {
    "id": "kjb-georgia-1",
    "name": "Bible Way Baptist Church",
    "address": "890 Faith Avenue",
    "city": "Atlanta", 
    "state": "Georgia",
    "zipCode": "30301",
    "latitude": 33.7490,
    "longitude": -84.3880,
    "phone": "(404) 555-0789",
    "website": "https://example.com",
    "pastor": "Pastor Michael Brown",
    "category": "KJB",
    "affiliation": ["King James Only", "Soul Winning"],
    "description": "A fundamental Baptist church that stands on the King James Bible and emphasizes evangelism and discipleship."
  },
  {
    "id": "kjb-tennessee-1",
    "name": "Victory Baptist Church",
    "address": "321 Triumph Road",
    "city": "Nashville",
    "state": "Tennessee", 
    "zipCode": "37201",
    "latitude": 36.1627,
    "longitude": -86.7816,
    "phone": "(615) 555-0321",
    "pastor": "Pastor Robert Wilson",
    "category": "KJB",
    "affiliation": ["Independent Baptist"],
    "description": "King James Bible believing Baptist church with a strong emphasis on expository preaching and Biblical living."
  },
  {
    "id": "kjb-california-1",
    "name": "Fundamental Baptist Church",
    "address": "456 Scripture Lane",
    "city": "Los Angeles",
    "state": "California",
    "zipCode": "90001",
    "latitude": 34.0522,
    "longitude": -118.2437,
    "phone": "(213) 555-0654",
    "website": "https://example.com",
    "pastor": "Pastor William Davis",
    "category": "KJB", 
    "affiliation": ["King James Only", "Fundamental Baptist"],
    "description": "A fundamental Baptist church committed to the King James Bible and traditional Baptist doctrine."
  },
  {
    "id": "kjb-north-carolina-1",
    "name": "Mount Calvary Baptist Church",
    "address": "789 Holy Hill Drive",
    "city": "Charlotte",
    "state": "North Carolina",
    "zipCode": "28201",
    "latitude": 35.2271,
    "longitude": -80.8431,
    "phone": "(704) 555-0987",
    "pastor": "Pastor James Anderson", 
    "category": "KJB",
    "affiliation": ["King James Only"],
    "description": "Independent King James Bible Baptist church focused on Biblical preaching, soul winning, and discipleship."
  },
  {
    "id": "kjb-virginia-1",
    "name": "Grace Baptist Church",
    "address": "123 Mercy Street",
    "city": "Virginia Beach", 
    "state": "Virginia",
    "zipCode": "23451",
    "latitude": 36.8529,
    "longitude": -75.9780,
    "phone": "(757) 555-0147",
    "website": "https://example.com",
    "pastor": "Pastor Charles Taylor",
    "category": "KJB",
    "affiliation": ["King James Only", "Baptist Bible Fellowship"],
    "description": "A Bible-believing Baptist church that uses only the King James Version and emphasizes salvation by grace through faith."
  },
  {
    "id": "kjb-south-carolina-1", 
    "name": "Pilgrim Rest Baptist Church",
    "address": "654 Journey Way",
    "city": "Columbia",
    "state": "South Carolina", 
    "zipCode": "29201",
    "latitude": 34.0007,
    "longitude": -81.0348,
    "phone": "(803) 555-0258",
    "pastor": "Pastor Thomas Miller",
    "category": "KJB",
    "affiliation": ["Independent Baptist", "King James Only"],
    "description": "King James Bible Baptist church with a heart for missions and Biblical separation from worldliness."
  },
  {
    "id": "kjb-kentucky-1",
    "name": "Highland Baptist Church",
    "address": "987 Mountain View Road",
    "city": "Louisville",
    "state": "Kentucky",
    "zipCode": "40201", 
    "latitude": 38.2527,
    "longitude": -85.7585,
    "phone": "(502) 555-0369",
    "pastor": "Pastor Mark Thompson",
    "category": "KJB",
    "affiliation": ["King James Only"],
    "description": "A fundamental Baptist church standing on the King James Bible with traditional hymns and expository preaching."
  },
  {
    "id": "kjb-alabama-1",
    "name": "Emmanuel Baptist Church",
    "address": "741 Promise Lane",
    "city": "Birmingham",
    "state": "Alabama",
    "zipCode": "35201",
    "latitude": 33.5186,
    "longitude": -86.8104,
    "phone": "(205) 555-0741",
    "website": "https://example.com", 
    "pastor": "Pastor Daniel White",
    "category": "KJB",
    "affiliation": ["King James Only", "Soul Winning"],
    "description": "Independent Baptist church committed to King James Bible preaching, soul winning, and conservative Christian living."
  }
]